,City,Cloudiness,Country,Date,Humidity,Lat,Lng,Max Temp,Wind Speed
0,rikitea,22.0,PF,1620878670.0,78.0,-23.1203,-134.9692,77.4,17.67
1,kochi,100.0,IN,1620878672.0,76.0,9.9399,76.2602,82.31,3.71
2,codrington,100.0,AU,1620878673.0,71.0,-38.2667,141.9667,52.68,18.19
3,dwarka,17.0,IN,1620878076.0,70.0,22.2394,68.9678,85.3,18.37
4,port moresby,100.0,PG,1620878674.0,74.0,-9.4431,147.1797,82.98,4.83
5,hannan,75.0,JP,1620878674.0,85.0,34.3217,135.2325,74.25,4.85
6,yulara,0.0,AU,1620878674.0,21.0,-25.2406,130.9889,74.88,10.45
7,port alfred,0.0,ZA,1620878675.0,75.0,-33.5906,26.891,59.18,7.38
8,richards bay,64.0,ZA,1620878675.0,81.0,-28.783,32.0377,67.1,1.79
9,longyearbyen,0.0,SJ,1620878675.0,73.0,78.2186,15.6401,17.11,0.0
10,sur,29.0,OM,1620878676.0,39.0,22.5667,59.5289,92.19,4.14
11,walvis bay,0.0,NA,1620878676.0,32.0,-22.9575,14.5053,73.98,6.44
12,shu,3.0,KZ,1620878676.0,28.0,43.5983,73.7614,66.96,11.16
13,hobart,75.0,AU,1620878429.0,83.0,-42.8794,147.3294,60.58,1.01
14,daryapur,27.0,IN,1620878677.0,26.0,20.9333,77.3333,94.64,13.13
15,kruisfontein,4.0,ZA,1620878677.0,81.0,-34.0033,24.7314,51.78,3.56
16,hermanus,4.0,ZA,1620878636.0,87.0,-34.4187,19.2345,54.66,5.41
17,petropavlovsk-kamchatskiy,31.0,RU,1620878423.0,59.0,53.0452,158.6483,51.94,5.01
18,labuhan,98.0,ID,1620878677.0,63.0,-6.8844,112.2051,86.86,5.21
19,buraydah,11.0,SA,1620878678.0,15.0,26.326,43.975,85.24,3.76
20,qaanaaq,100.0,GL,1620878678.0,82.0,77.484,-69.3632,23.34,10.45
21,hilo,75.0,US,1620878678.0,73.0,19.7297,-155.09,80.22,4.61
22,grand gaube,3.0,MU,1620878678.0,72.0,-20.0064,57.6608,77.86,7.0
23,fort-shevchenko,3.0,KZ,1620878679.0,56.0,44.5086,50.263,64.78,8.08
24,atambua,28.0,ID,1620878679.0,56.0,-9.1061,124.8925,84.02,3.8
27,faanui,100.0,PF,1620878679.0,80.0,-16.4833,-151.75,82.26,19.55
28,bluff,1.0,NZ,1620878680.0,57.0,-46.6,168.3333,51.71,3.11
29,banjar,73.0,ID,1620878680.0,59.0,-8.19,114.9675,85.82,3.62
32,mataura,3.0,NZ,1620878680.0,65.0,-46.1927,168.8643,51.39,0.98
33,tuktoyaktuk,8.0,CA,1620878681.0,91.0,69.4541,-133.0374,13.71,9.22
34,komsomolskiy,11.0,UZ,1620878681.0,46.0,40.4272,71.7189,67.17,4.61
35,atuona,19.0,PF,1620878681.0,80.0,-9.8,-139.0333,80.4,20.83
36,vaini,40.0,TO,1620878681.0,78.0,-21.2,-175.2,76.77,10.36
37,antofagasta,91.0,CL,1620878681.0,74.0,-23.65,-70.4,62.31,4.52
39,butaritari,21.0,KI,1620878682.0,77.0,3.0707,172.7902,82.78,14.79
40,yushu,0.0,CN,1620878682.0,17.0,44.8,126.5333,72.19,14.41
41,mar del plata,0.0,AR,1620878400.0,82.0,-38.0023,-57.5575,56.84,1.99
42,lebu,100.0,CL,1620878682.0,85.0,-37.6167,-73.65,53.82,10.31
43,baie-comeau,1.0,CA,1620878683.0,78.0,49.2168,-68.1489,33.28,5.61
44,chambas,71.0,CU,1620878683.0,87.0,22.1928,-78.9136,80.13,5.06
45,saint-pierre,0.0,RE,1620878683.0,69.0,-21.3393,55.4781,74.64,3.44
46,ushuaia,0.0,AR,1620878390.0,57.0,-54.8,-68.3,45.82,13.8
47,albany,53.0,US,1620878469.0,83.0,42.6001,-73.9662,46.62,4.63
49,baiao,87.0,BR,1620878684.0,99.0,-2.7906,-49.6717,72.25,1.34
50,ascension,90.0,US,1620878684.0,90.0,30.2169,-90.9001,70.99,4.61
52,egvekinot,100.0,RU,1620878684.0,100.0,66.3167,-179.1667,30.22,3.29
53,victoria,31.0,HK,1620878557.0,79.0,22.2855,114.1577,89.96,1.01
54,brindisi,15.0,IT,1620878685.0,60.0,40.5833,17.6667,60.49,7.85
55,mahebourg,23.0,MU,1620878685.0,74.0,-20.4081,57.7,77.74,17.45
56,severo-kurilsk,23.0,RU,1620878685.0,73.0,50.6789,156.125,38.1,15.57
57,hambantota,90.0,LK,1620878746.0,73.0,6.1241,81.1185,82.27,11.14
58,oranjemund,0.0,NA,1620878746.0,72.0,-28.55,16.4333,57.85,5.03
59,mayo,1.0,US,1620878746.0,82.0,38.8876,-76.5119,53.94,1.01
60,esperance,100.0,AU,1620878747.0,65.0,-33.8667,121.9,59.85,9.1
61,kavieng,9.0,PG,1620878747.0,70.0,-2.5744,150.7967,84.63,7.81
62,salinopolis,100.0,BR,1620878747.0,88.0,-0.6136,-47.3561,77.11,3.74
63,taltal,100.0,CL,1620878747.0,35.0,-25.4,-70.4833,76.33,11.03
65,husavik,91.0,IS,1620878748.0,68.0,66.0449,-17.3389,36.09,8.86
66,khash,11.0,IR,1620878748.0,15.0,28.2211,61.2158,76.01,6.46
67,ola,49.0,RU,1620878748.0,68.0,59.5833,151.2833,36.54,7.31
69,minab,4.0,IR,1620878749.0,27.0,27.1467,57.0801,87.22,1.28
70,busselton,99.0,AU,1620878595.0,51.0,-33.65,115.3333,59.95,16.08
71,bethel,1.0,US,1620878749.0,73.0,41.3712,-73.414,54.48,4.61
72,makat,81.0,KZ,1620878749.0,21.0,47.6469,53.3463,74.23,20.67
73,san patricio,72.0,US,1620878749.0,80.0,28.017,-97.5169,75.02,11.7
75,puerto ayora,13.0,EC,1620878750.0,93.0,-0.7393,-90.3518,75.34,3.0
76,torbay,90.0,CA,1620878599.0,87.0,47.6666,-52.7314,40.15,14.97
77,avarua,90.0,CK,1620878750.0,78.0,-21.2078,-159.775,78.69,10.36
78,cape town,75.0,ZA,1620878580.0,84.0,-33.9258,18.4232,54.86,3.29
79,lahaina,31.0,US,1620878213.0,69.0,20.8783,-156.6825,70.99,12.91
80,lavrentiya,100.0,RU,1620878750.0,97.0,65.5833,-171.0,33.58,1.79
81,hasaki,100.0,JP,1620878751.0,89.0,35.7333,140.8333,66.15,15.28
82,amahai,40.0,ID,1620878751.0,75.0,-3.3333,128.9167,84.47,7.16
83,bengkulu,55.0,ID,1620878751.0,69.0,-3.8004,102.2655,84.99,5.26
84,novoagansk,99.0,RU,1620878752.0,64.0,61.9449,76.6625,45.66,10.07
85,chuy,0.0,UY,1620878752.0,80.0,-33.6971,-53.4616,47.17,7.16
86,rio gallegos,43.0,AR,1620878662.0,66.0,-51.6226,-69.2181,45.55,13.49
87,ozernovskiy,29.0,RU,1620878752.0,84.0,51.5,156.5167,35.89,11.14
88,guhagar,100.0,IN,1620878753.0,57.0,17.4842,73.1929,88.88,4.56
89,mendoza,90.0,AR,1620878712.0,61.0,-32.8908,-68.8272,53.83,1.63
91,haines junction,55.0,CA,1620878753.0,51.0,60.7522,-137.5108,43.56,5.99
92,margate,93.0,GB,1620878753.0,80.0,51.3813,1.3862,52.7,3.0
93,ayan,13.0,RU,1620878753.0,78.0,56.45,138.1667,36.48,8.25
94,airai,49.0,TL,1620878754.0,63.0,-8.9266,125.4092,70.97,5.32
95,primorsk,12.0,UA,1620878754.0,75.0,46.7348,36.3443,55.15,5.82
96,port hedland,0.0,AU,1620878754.0,25.0,-20.3167,118.5667,91.33,13.8
98,balsas,73.0,BR,1620878755.0,65.0,-7.5325,-46.0356,75.33,2.46
99,punta arenas,75.0,CL,1620878747.0,88.0,-53.15,-70.9167,40.68,15.82
100,bredasdorp,7.0,ZA,1620878755.0,91.0,-34.5322,20.0403,51.12,4.12
102,carnarvon,0.0,AU,1620878755.0,37.0,-24.8667,113.6333,84.76,9.75
103,clyde river,100.0,CA,1620878490.0,93.0,70.4692,-68.5914,27.07,1.07
104,kodiak,90.0,US,1620878756.0,76.0,57.79,-152.4072,43.88,10.36
105,port lincoln,100.0,AU,1620878756.0,60.0,-34.7333,135.8667,57.72,16.04
106,upernavik,100.0,GL,1620878756.0,94.0,72.7868,-56.1549,25.95,6.24
107,hofn,15.0,IS,1620878757.0,67.0,64.2539,-15.2082,35.82,2.01
108,oktyabrskoye,0.0,RU,1620878757.0,57.0,43.0645,44.7417,44.24,0.65
109,taoudenni,0.0,ML,1620878757.0,8.0,22.6783,-3.9836,86.0,8.55
110,mae sot,80.0,TH,1620878757.0,47.0,16.7167,98.5667,93.61,3.96
111,padilla,85.0,CO,1620878758.0,89.0,3.2204,-76.3139,59.92,3.94
112,san policarpo,39.0,PH,1620878758.0,78.0,12.1791,125.5072,83.95,10.96
113,kapaa,90.0,US,1620878714.0,69.0,22.0752,-159.319,80.55,5.01
114,kropotkin,0.0,RU,1620878535.0,82.0,45.4375,40.5756,54.54,4.56
115,talnakh,100.0,RU,1620878818.0,99.0,69.4865,88.3972,32.25,2.73
116,cabo san lucas,51.0,MX,1620878764.0,62.0,22.8909,-109.9124,82.81,9.66
117,cairns,1.0,AU,1620878647.0,54.0,-16.9167,145.7667,85.91,8.05
118,palauig,3.0,PH,1620878819.0,54.0,15.435,119.9045,90.43,7.25
119,talcahuano,100.0,CL,1620878819.0,100.0,-36.7167,-73.1167,45.91,3.44
120,san quintin,0.0,MX,1620878819.0,86.0,30.4833,-115.95,60.19,7.29
121,los llanos de aridane,90.0,ES,1620878820.0,86.0,28.6585,-17.9182,62.11,16.62
122,saint-philippe,43.0,RE,1620878820.0,81.0,-21.3585,55.7679,74.57,10.4
123,uvat,100.0,RU,1620878820.0,80.0,59.1433,68.8953,57.88,6.55
124,geraldton,94.0,AU,1620878658.0,48.0,-28.7667,114.6,78.8,17.2
125,mount isa,0.0,AU,1620878821.0,19.0,-20.7333,139.5,76.39,11.5
126,nyagan,71.0,RU,1620878821.0,56.0,62.1406,65.3936,57.33,10.33
127,port hardy,69.0,CA,1620878821.0,92.0,50.6996,-127.4199,50.43,11.48
128,roebourne,0.0,AU,1620878822.0,28.0,-20.7833,117.1333,88.03,14.43
129,mehamn,95.0,NO,1620878822.0,96.0,71.0357,27.8492,40.6,8.37
130,port elizabeth,3.0,ZA,1620878822.0,83.0,-33.918,25.5701,55.67,4.72
131,naze,78.0,JP,1620878822.0,85.0,28.3667,129.4833,72.48,12.39
132,tomatlan,6.0,MX,1620878823.0,72.0,19.9333,-105.25,76.93,0.43
133,socorro,1.0,US,1620878823.0,49.0,31.6546,-106.3033,57.02,15.75
134,te anau,0.0,NZ,1620878824.0,69.0,-45.4167,167.7167,51.42,2.51
135,fez,0.0,MA,1620878807.0,68.0,34.0372,-4.9998,43.54,2.28
136,hofu,100.0,JP,1620878824.0,92.0,34.05,131.5667,69.69,1.43
137,vao,100.0,NC,1620878772.0,79.0,-22.6667,167.4833,75.07,18.9
138,inuvik,98.0,CA,1620878824.0,81.0,68.3499,-133.7218,21.22,11.81
139,ouro preto,85.0,BR,1620878825.0,67.0,-20.3948,-43.5052,55.67,3.27
140,edmundston,1.0,CA,1620878545.0,65.0,47.3737,-68.3251,40.71,6.91
141,arraial do cabo,100.0,BR,1620878825.0,90.0,-22.9661,-42.0278,70.27,16.15
142,bandarbeyla,98.0,SO,1620878825.0,62.0,9.4942,50.8122,85.28,17.87
143,laguna,1.0,US,1620878826.0,44.0,38.421,-121.4238,78.91,1.01
144,kiruna,90.0,SE,1620878826.0,100.0,67.8557,20.2251,33.06,3.44
145,mbuji-mayi,1.0,CD,1620878826.0,82.0,-6.15,23.6,66.16,2.55
146,lompoc,90.0,US,1620878641.0,88.0,34.6391,-120.4579,57.63,6.91
147,tasiilaq,50.0,GL,1620878827.0,91.0,65.6145,-37.6368,24.35,3.89
148,guerrero negro,0.0,MX,1620878827.0,83.0,27.9769,-114.0611,60.57,14.07
149,pisco,0.0,PE,1620878706.0,88.0,-13.7,-76.2167,64.31,10.36
150,hami,100.0,CN,1620878827.0,58.0,42.8,93.45,54.99,11.05
151,pringsewu,99.0,ID,1620878828.0,61.0,-5.3582,104.9744,88.68,4.38
152,torshavn,100.0,FO,1620878828.0,77.0,62.0097,-6.7716,39.2,20.65
153,saskylakh,100.0,RU,1620878828.0,91.0,71.9167,114.0833,33.1,6.98
154,kaitangata,6.0,NZ,1620878829.0,61.0,-46.2817,169.8464,51.93,3.06
155,bataipora,61.0,BR,1620878829.0,99.0,-22.2953,-53.2711,56.95,3.38
156,mugur-aksy,100.0,RU,1620878829.0,84.0,50.35,90.5,36.18,6.49
157,mahajanga,20.0,MG,1620878829.0,78.0,-15.7167,46.3167,74.98,4.61
159,norman wells,100.0,CA,1620878830.0,97.0,65.282,-126.8329,37.06,7.7
160,tvoroyri,100.0,FO,1620878830.0,76.0,61.5556,-6.8111,39.2,22.66
161,tocopilla,62.0,CL,1620878831.0,78.0,-22.092,-70.1979,65.71,6.64
162,abu kamal,1.0,SY,1620878831.0,16.0,34.4506,40.9171,79.59,6.02
163,lasa,100.0,IT,1620878831.0,96.0,46.6166,10.7002,41.85,5.82
164,tiksi,99.0,RU,1620878891.0,73.0,71.6872,128.8694,28.62,5.28
165,kabanjahe,96.0,ID,1620878784.0,69.0,3.1001,98.4908,75.61,2.64
166,thompson,100.0,CA,1620878892.0,86.0,55.7435,-97.8558,39.33,10.13
167,tigil,38.0,RU,1620878892.0,42.0,57.8,158.6667,45.36,11.34
168,palmer,75.0,US,1620878680.0,76.0,42.1584,-72.3287,48.72,3.15
170,mujiayingzi,100.0,CN,1620878892.0,49.0,42.1167,118.7833,64.33,6.82
171,samsun,75.0,TR,1620878893.0,58.0,41.25,36.3333,57.88,1.63
172,vestmannaeyjar,88.0,IS,1620878893.0,65.0,63.4427,-20.2734,41.56,8.93
173,tommot,100.0,RU,1620878893.0,98.0,58.9564,126.2925,41.41,3.24
174,alofi,43.0,NU,1620878893.0,77.0,-19.0595,-169.9187,77.4,19.93
175,betsiamites,76.0,CA,1620878894.0,76.0,48.9413,-68.646,33.69,6.62
176,latung,97.0,PH,1620878894.0,75.0,5.5,120.8833,84.72,11.01
177,isangel,100.0,VU,1620878894.0,73.0,-19.55,169.2667,78.4,10.8
178,abaete,62.0,BR,1620878895.0,50.0,-19.16,-45.4458,60.64,2.35
179,jamestown,1.0,US,1620878895.0,66.0,42.097,-79.2353,40.37,1.99
180,fairbanks,75.0,US,1620878800.0,49.0,64.8378,-147.7164,55.62,0.0
181,kahului,1.0,US,1620878615.0,75.0,20.8947,-156.47,75.2,19.57
182,teguise,75.0,ES,1620878895.0,86.0,29.0605,-13.564,62.71,25.81
183,touros,100.0,BR,1620878726.0,96.0,-5.1989,-35.4608,75.09,8.14
184,tual,57.0,ID,1620878836.0,76.0,-5.6667,132.75,83.61,16.08
185,kon tum,63.0,VN,1620878896.0,36.0,14.35,108.0,95.61,2.35
186,la cruz,48.0,MX,1620878896.0,91.0,23.9167,-106.9,77.86,1.99
187,honningsvag,75.0,NO,1620878896.0,96.0,70.9821,25.9704,39.2,5.86
188,bardiyah,0.0,LY,1620878896.0,67.0,31.7561,25.0865,66.43,6.11
189,snyder,1.0,US,1620878897.0,82.0,32.7179,-100.9176,47.75,5.75
190,lucapa,0.0,AO,1620878897.0,79.0,-8.4192,20.7447,60.85,2.86
191,sri aman,100.0,MY,1620878897.0,84.0,1.2376,111.4621,80.64,3.09
192,maturin,90.0,VE,1620878897.0,92.0,9.75,-63.1767,72.03,4.09
193,ancud,100.0,CL,1620878898.0,92.0,-41.8697,-73.8203,50.43,4.14
194,hithadhoo,100.0,MV,1620878866.0,86.0,-0.6,73.0833,79.92,15.61
195,kupang,20.0,ID,1620878898.0,43.0,-10.1667,123.5833,88.99,20.71
196,itaguai,97.0,BR,1620878898.0,93.0,-22.8522,-43.7753,69.39,10.29
197,corinto,13.0,GR,1620878898.0,76.0,37.9407,22.9573,66.88,9.08
198,syasstroy,15.0,RU,1620878899.0,75.0,60.1367,32.5691,56.5,7.7
199,castro,100.0,BR,1620878899.0,98.0,-24.7911,-50.0119,52.57,5.48
200,albacete,0.0,ES,1620878899.0,75.0,38.8333,-2.0,40.87,8.59
201,henties bay,0.0,NA,1620878899.0,44.0,-22.116,14.2845,71.2,5.26
202,angoram,46.0,PG,1620878900.0,58.0,-4.0625,144.0661,90.41,6.04
203,ittiri,31.0,IT,1620878900.0,95.0,40.5929,8.5684,52.45,4.32
204,nikolskoye,12.0,RU,1620878900.0,72.0,59.7035,30.7861,59.63,6.44
205,neiafu,40.0,TO,1620878900.0,78.0,-18.65,-173.9833,78.58,8.05
206,chokurdakh,22.0,RU,1620878901.0,86.0,70.6333,147.9167,22.37,3.91
207,aksu,99.0,CN,1620878901.0,31.0,41.1231,80.2644,65.44,5.12
208,provideniya,90.0,RU,1620878901.0,87.0,64.3833,-173.3,35.55,11.18
209,yellowknife,99.0,CA,1620878804.0,71.0,62.456,-114.3525,47.12,10.87
210,saint-georges,35.0,GD,1620878902.0,75.0,12.0564,-61.7485,78.6,16.49
211,gunnedah,0.0,AU,1620878902.0,59.0,-30.9833,150.25,63.72,1.99
212,bartlesville,1.0,US,1620878902.0,82.0,36.7473,-95.9808,54.68,0.0
213,kayes,62.0,ML,1620878903.0,36.0,14.0,-11.0,89.29,5.73
214,vilnius,75.0,LT,1620878903.0,87.0,54.6892,25.2798,49.8,9.22
215,manuk mangkaw,76.0,PH,1620878963.0,75.0,4.8,119.85,84.27,10.22
216,sonoita,0.0,MX,1620878963.0,17.0,31.85,-112.8333,76.08,3.83
217,bambous virieux,27.0,MU,1620878964.0,74.0,-20.3428,57.7575,77.7,17.6
218,puerto madero,75.0,MX,1620878964.0,89.0,14.7208,-92.4215,80.49,5.75
219,tuatapere,1.0,NZ,1620878899.0,62.0,-46.1333,167.6833,51.71,2.86
220,kailua,1.0,US,1620878888.0,69.0,21.4022,-157.7394,80.56,13.8
221,simplicio mendes,97.0,BR,1620878964.0,66.0,-7.8539,-41.9103,74.28,5.57
222,new norfolk,100.0,AU,1620878864.0,74.0,-42.7826,147.0587,51.44,5.01
223,katima mulilo,0.0,NA,1620878965.0,76.0,-17.5,24.2667,52.5,3.31
224,kautokeino,100.0,NO,1620878965.0,100.0,69.0125,23.0412,35.46,5.08
225,bafra,53.0,TR,1620878965.0,77.0,41.5678,35.9069,58.71,3.78
226,rawah,30.0,IQ,1620878966.0,15.0,34.4816,41.9093,82.29,4.09
227,leningradskiy,100.0,RU,1620878966.0,95.0,69.3833,178.4167,33.37,2.73
228,aldan,100.0,RU,1620878966.0,99.0,58.6031,125.3894,36.14,4.52
229,celestun,82.0,MX,1620878966.0,61.0,20.8667,-90.4,86.02,11.45
230,ribeira grande,20.0,PT,1620878967.0,89.0,38.5167,-28.7,62.58,9.13
231,haimen,79.0,CN,1620878967.0,68.0,23.1935,116.6142,86.67,13.53
232,anahuac,100.0,MX,1620878967.0,81.0,27.2333,-100.15,66.15,8.1
234,kirakira,16.0,SB,1620878968.0,68.0,-10.4544,161.9205,84.54,6.26
235,lagoa,18.0,PT,1620878968.0,88.0,39.05,-27.9833,61.88,13.11
237,linhares,64.0,BR,1620878968.0,94.0,-19.3911,-40.0722,64.54,4.72
238,bambanglipuro,87.0,ID,1620878969.0,63.0,-7.95,110.2833,86.76,13.87
239,dikson,77.0,RU,1620878969.0,79.0,73.5069,80.5464,29.16,14.52
240,sal rei,60.0,CV,1620878716.0,85.0,16.1833,-22.9167,69.73,17.22
241,pangnirtung,100.0,CA,1620878969.0,97.0,66.1451,-65.7125,28.87,4.99
243,ruston,90.0,US,1620878970.0,77.0,32.5232,-92.6379,63.25,4.61
244,barrow,90.0,US,1620878950.0,79.0,71.2906,-156.7887,17.58,14.97
245,pevek,96.0,RU,1620878885.0,88.0,69.7008,170.3133,30.15,2.51
246,dillon,100.0,US,1620878970.0,87.0,34.4166,-79.3712,49.6,5.28
247,mokhsogollokh,96.0,RU,1620878970.0,33.0,61.4681,128.9203,52.02,6.2
248,pombia,82.0,IT,1620878971.0,95.0,45.653,8.6336,52.68,4.61
249,jabinyanah,12.0,TN,1620878971.0,64.0,35.035,10.9081,61.32,1.95
250,ponta do sol,82.0,PT,1620878971.0,87.0,32.6667,-17.1,64.4,4.63
251,caravelas,94.0,BR,1620878971.0,88.0,-17.7125,-39.2481,69.89,4.27
252,mirabad,0.0,AF,1620878972.0,18.0,30.4362,61.8383,80.55,30.11
253,saint george,1.0,US,1620878790.0,15.0,37.1041,-113.5841,69.4,1.01
254,sao filipe,3.0,CV,1620878972.0,69.0,14.8961,-24.4956,75.36,7.45
255,acatlan,98.0,MX,1620878973.0,97.0,20.15,-98.45,56.62,7.38
256,ostrovnoy,62.0,RU,1620878887.0,79.0,68.0531,39.5131,48.0,8.19
257,tessalit,19.0,ML,1620878973.0,11.0,20.1986,1.0114,85.33,8.55
258,bereda,100.0,ES,1620878973.0,99.0,43.2686,-7.5406,50.61,7.09
259,dingle,79.0,PH,1620878974.0,51.0,10.9995,122.6711,91.13,13.89
260,cidreira,0.0,BR,1620878974.0,80.0,-30.1811,-50.2056,53.2,6.53
262,cherskiy,97.0,RU,1620878974.0,81.0,68.75,161.3,26.28,3.74
263,bilibino,97.0,RU,1620878884.0,94.0,68.0546,166.4372,31.26,1.45
264,podor,93.0,MR,1620878975.0,31.0,16.6527,-14.9587,82.67,10.4
265,padang,97.0,ID,1620878975.0,69.0,-0.9492,100.3543,86.67,4.09
266,salalah,58.0,OM,1620878941.0,69.0,17.0151,54.0924,83.71,4.5
267,itaituba,91.0,BR,1620878782.0,99.0,-4.2761,-55.9836,73.08,1.14
268,sciacca,0.0,IT,1620878975.0,65.0,37.5082,13.0881,52.99,6.76
270,hervey bay,2.0,AU,1620878925.0,70.0,-25.2986,152.8535,78.75,5.99
271,pochutla,74.0,MX,1620879036.0,74.0,15.7432,-96.4661,82.42,4.5
272,lorengau,95.0,PG,1620879036.0,78.0,-2.0226,147.2712,82.56,3.83
273,sao jose da coroa grande,32.0,BR,1620879036.0,88.0,-8.8978,-35.1478,76.33,6.69
274,alice springs,0.0,AU,1620879011.0,21.0,-23.7,133.8833,67.21,11.99
275,dire,91.0,ML,1620879037.0,57.0,12.2833,-10.9667,82.45,1.63
276,chapais,63.0,CA,1620879037.0,60.0,49.7834,-74.8492,41.49,4.79
277,yatou,63.0,CN,1620879038.0,61.0,37.15,122.3833,70.57,9.73
279,sao felix do xingu,2.0,BR,1620879038.0,96.0,-6.6447,-51.995,69.73,1.5
280,salinas,90.0,US,1620879038.0,82.0,36.6777,-121.6555,56.82,11.5
281,grindavik,75.0,IS,1620879039.0,69.0,63.8424,-22.4338,37.29,5.41
282,manaus,0.0,BR,1620879039.0,94.0,-3.1019,-60.025,76.68,0.0
283,ambilobe,65.0,MG,1620879039.0,83.0,-13.2,49.05,69.44,2.91
284,hamilton,1.0,US,1620878882.0,69.0,39.1834,-84.5333,47.79,5.21
285,morgan city,90.0,US,1620878950.0,93.0,29.6994,-91.2068,71.58,6.73
286,denison,90.0,US,1620879040.0,85.0,33.7557,-96.5367,59.41,1.01
287,stephenville,90.0,US,1620879040.0,90.0,32.2207,-98.2023,56.26,0.0
288,cabra,11.0,ES,1620879040.0,94.0,37.4725,-4.4421,47.68,1.68
289,marsa matruh,0.0,EG,1620879041.0,55.0,31.3525,27.2453,65.73,1.97
290,fiumicino,69.0,IT,1620879041.0,77.0,41.7675,12.2291,58.98,14.14
291,troy,1.0,US,1620879041.0,60.0,42.6056,-83.1499,47.44,0.0
292,tautira,96.0,PF,1620879041.0,81.0,-17.7333,-149.15,84.2,20.58
293,vanimo,77.0,PG,1620879042.0,75.0,-2.6741,141.3028,83.89,6.82
294,raahe,17.0,FI,1620879042.0,79.0,64.6833,24.4833,53.56,8.63
295,trairi,64.0,BR,1620879035.0,95.0,-3.2778,-39.2689,74.64,8.39
296,grand-lahou,7.0,CI,1620879043.0,77.0,5.1367,-5.0242,79.12,5.99
297,rudnyy,12.0,KZ,1620879043.0,41.0,52.9594,63.1206,66.18,4.21
299,mindelo,20.0,CV,1620879043.0,80.0,16.8901,-24.9804,70.97,20.65
300,murgab,0.0,TM,1620879044.0,23.0,37.4966,61.9714,80.06,12.95
301,punta alta,0.0,AR,1620879044.0,64.0,-38.8759,-62.0736,56.23,11.23
302,sobolevo,100.0,RU,1620879045.0,92.0,54.4299,31.8996,46.08,11.9
303,west bay,8.0,KY,1620879045.0,77.0,19.3667,-81.4167,81.0,9.73
304,ibara,100.0,JP,1620879045.0,84.0,34.6,133.4667,70.5,5.99
305,atasu,79.0,KZ,1620879046.0,47.0,48.6814,71.6433,62.11,12.73
306,sept-iles,90.0,CA,1620879046.0,73.0,50.2001,-66.3821,42.01,1.99
307,souillac,12.0,MU,1620879014.0,79.0,-20.5167,57.5167,77.85,15.84
308,pampas,86.0,PE,1620879046.0,84.0,-12.4,-74.9,48.67,2.77
309,gobo,100.0,JP,1620879047.0,80.0,33.8833,135.15,67.95,6.78
310,aragarcas,5.0,BR,1620879047.0,57.0,-15.8975,-52.2508,67.84,3.94
312,dawei,7.0,MM,1620879047.0,54.0,14.0833,98.2,92.08,6.08
313,san andres,90.0,CO,1620879048.0,78.0,12.5847,-81.7006,82.35,16.11
314,hay river,100.0,CA,1620879048.0,62.0,60.8156,-115.7999,48.83,2.91
315,norden,81.0,DE,1620879048.0,84.0,53.6,7.2,45.95,3.65
316,foix,45.0,FR,1620879049.0,94.0,42.8333,1.5833,32.27,3.98
317,painesville,1.0,US,1620879049.0,86.0,41.7245,-81.2457,44.62,4.7
319,sinnamary,99.0,GF,1620879049.0,88.0,5.3833,-52.95,76.57,8.05
320,hailun,0.0,CN,1620879050.0,25.0,47.45,126.9333,67.57,17.05
321,half moon bay,90.0,US,1620879012.0,91.0,37.4636,-122.4286,64.15,3.44
322,srivardhan,100.0,IN,1620879050.0,61.0,18.0333,73.0167,87.46,4.03
323,coahuayana,36.0,MX,1620879050.0,82.0,18.7333,-103.6833,77.4,1.05
324,gilgit,81.0,PK,1620879110.0,52.0,35.9221,74.3087,65.5,1.3
325,martil,67.0,MA,1620879111.0,78.0,35.6166,-5.2752,60.75,11.18
326,kavaratti,100.0,IN,1620879111.0,75.0,10.5669,72.642,82.72,6.29
327,cairo,0.0,EG,1620879040.0,53.0,30.0626,31.2497,62.71,6.53
328,valentin gomez farias,96.0,MX,1620879112.0,66.0,28.2167,-106.5833,61.77,7.85
329,bogorodskoye,55.0,RU,1620879073.0,85.0,56.55,37.8833,51.31,6.89
330,alyangula,7.0,AU,1620878939.0,52.0,-13.8483,136.4192,83.82,12.64
332,baijiantan,0.0,CN,1620878830.0,24.0,45.6333,85.1833,68.59,16.11
333,makakilo city,75.0,US,1620879040.0,54.0,21.3469,-158.0858,79.11,9.22
335,praia da vitoria,13.0,PT,1620879112.0,88.0,38.7333,-27.0667,61.65,5.55
336,ruteng,80.0,ID,1620879113.0,52.0,-8.6136,120.4721,76.71,2.55
337,boddam,96.0,GB,1620879113.0,94.0,57.4667,-1.7833,44.71,7.61
338,katsuura,100.0,JP,1620878953.0,94.0,35.1333,140.3,64.99,20.58
339,roma,1.0,US,1620879004.0,80.0,43.2128,-75.4557,44.42,0.0
340,vardo,100.0,NO,1620879113.0,91.0,70.3705,31.1107,41.63,6.2
341,sindor,15.0,RU,1620879114.0,54.0,62.8629,51.8905,66.06,4.14
342,nargana,100.0,PA,1620879114.0,87.0,9.4428,-78.5906,81.0,8.5
343,berlevag,99.0,NO,1620879114.0,91.0,70.8578,29.0864,41.85,8.43
344,goundi,74.0,TD,1620879115.0,60.0,9.3627,17.366,80.65,5.17
345,kirensk,77.0,RU,1620879115.0,51.0,57.7853,108.1119,45.37,9.57
346,otukpo,100.0,NG,1620879116.0,95.0,7.1913,8.1329,74.43,2.75
347,nynashamn,46.0,SE,1620879116.0,94.0,58.9034,17.9479,55.11,5.41
348,kamenka,82.0,RU,1620879116.0,75.0,51.3223,42.7678,55.02,7.16
349,nome,90.0,US,1620879116.0,57.0,64.5011,-165.4064,49.96,0.0
350,goderich,1.0,CA,1620879117.0,71.0,43.7501,-81.7165,37.85,5.61
351,adrar,1.0,MR,1620879117.0,15.0,20.5022,-10.0711,77.99,11.12
352,sitka,40.0,US,1620879117.0,66.0,57.0531,-135.33,46.29,4.61
353,ciudad bolivar,76.0,VE,1620879118.0,72.0,8.1222,-63.5497,78.96,11.56
354,la palma,75.0,US,1620879118.0,80.0,33.8464,-118.0467,64.85,3.0
355,hearst,41.0,CA,1620879118.0,58.0,49.6835,-83.6665,46.15,6.85
356,nioro,86.0,GM,1620879119.0,69.0,13.35,-15.75,80.94,5.19
357,port blair,29.0,IN,1620879119.0,65.0,11.6667,92.75,87.94,4.97
358,yevlax,75.0,AZ,1620879119.0,88.0,40.6089,47.1492,60.62,9.22
359,nouadhibou,0.0,MR,1620879120.0,85.0,20.931,-17.0347,64.89,22.39
360,pagegiai,7.0,LT,1620879120.0,85.0,55.1381,21.9089,50.4,5.17
362,cururupu,66.0,BR,1620879120.0,94.0,-1.8283,-44.8683,73.92,1.28
363,samarai,59.0,PG,1620879121.0,70.0,-10.6167,150.6667,84.9,13.02
364,arlit,23.0,NE,1620878957.0,10.0,18.7369,7.3853,87.17,10.65
365,pacific grove,34.0,US,1620879121.0,93.0,36.6177,-121.9166,56.43,1.01
366,ust-kuyga,65.0,RU,1620879121.0,83.0,70.0167,135.6,26.42,5.37
367,liverpool,100.0,GB,1620879104.0,80.0,53.4106,-2.9779,49.68,4.43
368,zeya,100.0,RU,1620879122.0,90.0,53.75,127.2667,47.39,2.46
369,nizwa,28.0,OM,1620879122.0,25.0,22.9333,57.5333,89.06,0.74
370,tazovskiy,100.0,RU,1620879123.0,100.0,67.4667,78.7,32.29,8.93
371,mackenzie,88.0,CA,1620879123.0,58.0,55.2999,-123.1698,52.66,2.86
372,east london,0.0,ZA,1620878891.0,78.0,-33.0153,27.9116,58.48,6.42
373,kodinsk,4.0,RU,1620879124.0,31.0,58.6881,99.1844,52.72,3.74
374,namibe,0.0,AO,1620879124.0,67.0,-15.1961,12.1522,72.9,2.68
375,ketchikan,75.0,US,1620879125.0,71.0,55.3422,-131.6461,51.78,11.5
376,udachnyy,100.0,RU,1620879125.0,71.0,66.4167,112.4,40.14,12.57
377,santa cruz,100.0,BO,1620879159.0,65.0,-17.8,-63.1667,60.67,7.11
378,port hawkesbury,40.0,CA,1620879186.0,90.0,45.6169,-61.3485,39.58,3.0
379,kharp,97.0,RU,1620879186.0,64.0,66.8014,65.8081,38.17,8.32
380,nova olinda do norte,100.0,BR,1620879187.0,99.0,-3.8881,-59.0942,73.72,3.2
382,concepcion del oro,81.0,MX,1620879187.0,59.0,24.6333,-101.4167,58.68,5.95
383,bacolod,47.0,PH,1620879187.0,55.0,10.6667,122.95,90.88,11.68
385,hovd,77.0,MN,1620879188.0,37.0,48.0056,91.6419,49.82,11.12
386,harbour breton,76.0,CA,1620879188.0,75.0,47.4833,-55.7983,39.87,14.29
387,garza garcia,97.0,MX,1620879089.0,86.0,25.6667,-100.4,60.73,1.01
388,bray,44.0,IE,1620879189.0,88.0,53.2028,-6.0983,45.91,4.25
389,apartado,100.0,CO,1620879189.0,95.0,7.883,-76.6259,76.59,0.98
390,klaksvik,100.0,FO,1620878948.0,76.0,62.2266,-6.589,38.91,21.32
391,santa maria,0.0,BR,1620879190.0,79.0,-29.6842,-53.8069,47.16,1.99
392,aksarka,64.0,RU,1620879190.0,64.0,66.5606,67.7975,40.69,10.31
393,fortuna,90.0,US,1620879191.0,62.0,40.5982,-124.1573,50.67,1.01
394,gasa,0.0,PS,1620879191.0,77.0,31.5,34.4667,69.35,2.08
395,okhotsk,99.0,RU,1620879192.0,67.0,59.3833,143.3,38.55,8.57
396,innisfail,0.0,AU,1620878931.0,73.0,-17.5333,146.0333,79.7,7.27
397,cockburn town,1.0,TC,1620878927.0,78.0,21.4612,-71.1419,78.89,22.06
398,noumea,100.0,NC,1620879192.0,73.0,-22.2763,166.4572,80.51,7.67
399,gazojak,0.0,TM,1620879192.0,17.0,41.1875,61.4036,76.86,19.53
400,bethlehem,75.0,BR,1620879025.0,94.0,-1.4558,-48.5044,76.91,6.91
401,pokoynoye,0.0,RU,1620879193.0,69.0,44.8097,44.2517,59.14,3.78
403,sindou,51.0,BF,1620879193.0,68.0,10.6667,-5.1667,78.21,3.33
404,inirida,95.0,CO,1620879193.0,97.0,3.8653,-67.9239,72.9,1.59
406,el alto,23.0,PE,1620879194.0,80.0,-4.2714,-81.2147,67.59,11.27
407,kununurra,0.0,AU,1620879194.0,25.0,-15.7667,128.7333,87.3,13.8
408,sorong,6.0,ID,1620879195.0,74.0,-0.8833,131.25,83.91,3.87
409,chimbote,13.0,PE,1620879195.0,88.0,-9.0853,-78.5783,64.6,5.21
410,urcos,86.0,PE,1620879195.0,89.0,-13.6861,-71.6228,48.4,4.92
411,aykhal,100.0,RU,1620879196.0,83.0,66.0,111.5,37.09,16.75
412,benito juarez,90.0,MX,1620879196.0,82.0,19.385,-99.165,29.12,11.65
413,waipawa,69.0,NZ,1620879196.0,61.0,-41.4122,175.5153,54.03,7.67
415,nago,99.0,JP,1620879197.0,79.0,26.5881,127.9761,86.0,13.04
417,grand-santi,100.0,GF,1620879197.0,100.0,4.25,-54.3833,71.71,2.19
418,sioux lookout,1.0,CA,1620879198.0,46.0,50.1001,-91.917,43.84,3.44
419,umm lajj,0.0,SA,1620879034.0,45.0,25.0213,37.2685,80.73,8.59
421,ixtapa,1.0,MX,1620879198.0,83.0,20.7,-105.2,80.19,0.0
422,becerril,64.0,CO,1620879198.0,82.0,9.7041,-73.2793,76.89,5.46
423,beidao,73.0,CN,1620879199.0,53.0,34.5686,105.8933,75.61,9.84
424,kem,0.0,RU,1620879200.0,68.0,64.9555,34.5793,58.87,8.19
425,vila franca do campo,64.0,PT,1620879200.0,88.0,37.7167,-25.4333,62.29,5.35
426,alenquer,100.0,BR,1620879200.0,98.0,-1.9417,-54.7383,76.66,4.63
428,broome,4.0,US,1620879200.0,51.0,42.2506,-75.833,40.68,1.01
430,san cristobal,81.0,VE,1620878946.0,95.0,7.7669,-72.225,64.69,3.29
431,mogapi,0.0,BW,1620879201.0,55.0,-22.323,27.8349,54.5,1.34
433,diamantina,49.0,BR,1620879201.0,65.0,-18.2494,-43.6003,54.59,1.77
434,kollam,100.0,IN,1620879202.0,77.0,8.8833,76.6,83.98,3.91
435,dunda,68.0,TZ,1620879202.0,89.0,-8.1167,34.25,56.1,2.24
436,rey bouba,91.0,CM,1620879203.0,58.0,8.6724,14.1786,81.95,5.48
438,dolinsk,99.0,RU,1620879263.0,81.0,47.35,142.8,42.49,8.86
439,pyapon,5.0,MM,1620879264.0,49.0,16.2833,95.6833,93.38,5.73
440,nipawin,40.0,CA,1620879264.0,50.0,53.3668,-104.0009,47.53,8.05
441,varzea alegre,51.0,BR,1620878969.0,72.0,-5.35,-40.3833,74.08,3.33
442,smithers,69.0,CA,1620879083.0,63.0,54.7804,-127.1743,52.2,4.63
443,kijang,100.0,KR,1620879265.0,76.0,35.2442,129.2139,65.43,9.22
444,poddorye,42.0,RU,1620879265.0,84.0,57.4695,31.1156,53.31,10.38
445,forio,87.0,IT,1620879266.0,62.0,40.7342,13.8646,60.42,7.56
446,corleone,1.0,IT,1620879266.0,60.0,37.8134,13.3017,55.71,2.8
447,key west,20.0,US,1620879266.0,81.0,24.5557,-81.7826,82.99,6.91
448,tura,2.0,IN,1620879266.0,52.0,25.5198,90.2201,83.34,5.17
449,tahoua,1.0,NE,1620879267.0,22.0,14.8888,5.2692,83.79,11.45
450,narsaq,9.0,GL,1620879267.0,62.0,60.9167,-46.05,40.71,7.36
451,voyvozh,40.0,RU,1620879267.0,68.0,62.892,54.9635,63.59,2.55
452,northam,100.0,GB,1620879268.0,95.0,51.0333,-4.2167,45.3,9.91
453,hobyo,100.0,SO,1620879268.0,69.0,5.3505,48.5268,81.75,19.84
454,lashio,9.0,MM,1620879268.0,57.0,22.9333,97.75,80.87,4.21
455,panguiranan,16.0,PH,1620879269.0,61.0,12.0699,123.3185,89.15,11.39
456,severnoye,40.0,RU,1620879269.0,55.0,56.3491,78.3619,51.87,11.88
457,damietta,5.0,EG,1620879269.0,72.0,31.4165,31.8133,66.94,3.44
458,alta floresta,29.0,BR,1620879270.0,77.0,-9.8756,-56.0861,71.22,3.44
459,luena,0.0,AO,1620879270.0,65.0,-11.7833,19.9167,51.6,3.49
460,tecpan,46.0,GT,1620879270.0,89.0,14.7623,-90.9947,40.93,2.77
461,nanfeng,100.0,CN,1620879129.0,53.0,23.7434,111.7959,91.85,6.46
462,fasa,2.0,IR,1620879271.0,28.0,28.9383,53.6482,76.1,4.07
463,gotsu,99.0,JP,1620879271.0,73.0,35.0,132.2167,67.62,4.47
464,hatillo,100.0,PR,1620879272.0,88.0,18.4863,-66.8254,77.79,12.53
465,coquimbo,75.0,CL,1620879196.0,88.0,-29.9533,-71.3436,55.26,4.25
466,talas,0.0,TR,1620879272.0,45.0,38.6908,35.5538,36.57,2.04
467,mwinilunga,0.0,ZM,1620879272.0,81.0,-11.7358,24.4293,52.11,3.27
468,ekhabi,4.0,RU,1620879273.0,67.0,53.5102,142.9671,44.96,13.2
470,chirongui,4.0,YT,1620879273.0,73.0,-12.9319,45.1483,80.46,10.0
471,prince rupert,100.0,CA,1620879274.0,85.0,54.3161,-130.3201,47.73,4.34
472,teocaltiche,25.0,MX,1620879274.0,50.0,21.4333,-102.5833,42.15,7.25
473,durango,94.0,MX,1620879266.0,42.0,24.8333,-104.8333,70.23,6.26
474,betare oya,99.0,CM,1620879274.0,98.0,5.6,14.0833,68.32,3.51
475,mulanje,12.0,MW,1620879274.0,93.0,-16.0316,35.5,59.2,3.31
476,baykit,33.0,RU,1620879275.0,45.0,61.67,96.37,53.49,6.69
477,namatanai,5.0,PG,1620879275.0,68.0,-3.6667,152.4333,85.1,10.0
478,lata,100.0,PT,1620879275.0,86.0,40.1629,-8.3327,51.98,2.13
479,saint-ambroise,66.0,CA,1620879276.0,77.0,48.5501,-71.3324,41.18,0.89
480,pryozerne,9.0,UA,1620879276.0,61.0,45.2698,36.3303,55.9,4.43
481,barraute,5.0,CA,1620879276.0,73.0,48.4335,-77.6328,34.43,5.03
482,porto novo,62.0,BJ,1620879276.0,85.0,6.4965,2.6036,77.45,6.35
483,flinders,0.0,AU,1620879277.0,49.0,-34.5833,150.8552,73.8,4.14
484,wasilla,90.0,US,1620879277.0,45.0,61.5814,-149.4394,54.18,3.44
485,manzanillo,26.0,CU,1620879277.0,83.0,20.3433,-77.1167,77.88,4.7
486,svetlaya,35.0,RU,1620879130.0,74.0,46.5389,138.3297,51.62,16.04
487,ornskoldsvik,96.0,SE,1620879277.0,80.0,63.2909,18.7153,46.18,2.06
488,moyale,99.0,KE,1620879278.0,83.0,3.5167,39.0584,65.93,7.05
489,leh,100.0,IN,1620879338.0,53.0,34.1667,77.5833,43.92,6.29
490,ilulissat,73.0,GL,1620879338.0,47.0,69.2167,-51.1,33.4,21.85
491,taldan,100.0,RU,1620879339.0,88.0,53.6667,124.8,44.94,7.58
492,saldanha,0.0,ZA,1620879339.0,88.0,-33.0117,17.9442,47.86,3.94
493,wuwei,1.0,CN,1620879340.0,18.0,37.9281,102.6414,77.86,9.91
495,coffs harbour,0.0,AU,1620879340.0,68.0,-30.3,153.1333,71.55,8.05
496,waddan,0.0,LY,1620879340.0,65.0,29.1614,16.139,64.54,6.08
497,ust-maya,100.0,RU,1620879340.0,76.0,60.4167,134.5333,51.51,7.31
498,nampula,75.0,MZ,1620879341.0,94.0,-15.1165,39.2666,61.14,10.36
499,neepawa,87.0,CA,1620879341.0,51.0,50.2289,-99.4664,56.48,10.94
501,luanda,3.0,AO,1620879158.0,89.0,-8.8368,13.2343,74.16,6.96
502,lukovetskiy,0.0,RU,1620879341.0,54.0,64.2956,41.9211,64.26,5.95
503,sungaipenuh,97.0,ID,1620879342.0,64.0,-2.0833,101.3833,80.01,2.26
504,bisira,100.0,PA,1620879342.0,94.0,8.5196,-81.7115,61.21,4.99
505,khatanga,100.0,RU,1620879342.0,99.0,71.9667,102.5,31.8,11.3
506,marystown,65.0,CA,1620879342.0,90.0,47.1666,-55.1483,37.11,15.57
507,kushima,100.0,JP,1620879343.0,83.0,31.4583,131.2333,73.36,6.73
508,kuyanovo,1.0,RU,1620879343.0,50.0,55.8014,54.5372,69.35,3.74
509,todos santos,39.0,MX,1620879343.0,62.0,23.45,-110.2167,82.31,5.93
510,strezhevoy,92.0,RU,1620879344.0,44.0,60.7333,77.5889,47.7,9.33
511,rorvik,100.0,NO,1620879344.0,92.0,64.8621,11.2373,43.86,19.15
512,stornoway,90.0,GB,1620879344.0,93.0,58.2093,-6.3865,46.33,13.8
513,jilib,94.0,SO,1620879345.0,84.0,0.4883,42.7854,76.57,4.83
514,saint-joseph,21.0,RE,1620879345.0,78.0,-21.3667,55.6167,75.36,8.7
515,luderitz,0.0,NA,1620879345.0,43.0,-26.6481,15.1594,67.42,7.38
517,springbok,0.0,ZA,1620879346.0,38.0,-29.6643,17.8865,55.08,2.06
518,ilebo,12.0,CD,1620879346.0,84.0,-4.3167,20.5833,68.41,1.68
519,pilibanga,5.0,IN,1620879346.0,34.0,29.4916,74.079,93.13,11.48
521,sunbury,75.0,AU,1620879346.0,71.0,-37.5833,144.7333,57.56,7.0
522,kismayo,99.0,SO,1620879347.0,79.0,-0.3582,42.5454,79.54,14.32
523,heinola,0.0,FI,1620879206.0,72.0,61.2056,26.0381,59.7,4.38
524,dakar,23.0,SN,1620879347.0,87.0,14.6937,-17.4441,76.87,9.06
525,suntar,1.0,RU,1620879130.0,31.0,62.1444,117.6319,50.43,5.55
526,mbala,4.0,ZM,1620879347.0,91.0,-8.8402,31.3659,52.81,6.96
528,bridlington,100.0,GB,1620879348.0,92.0,54.0831,-0.1919,46.85,4.32
529,kandi,79.0,BJ,1620879348.0,61.0,11.1342,2.9386,80.64,6.06
530,abu samrah,26.0,SY,1620879348.0,37.0,35.3029,37.1841,66.96,4.34
531,hokitika,0.0,NZ,1620879348.0,55.0,-42.7167,170.9667,51.67,2.91
532,ongandjera,1.0,NA,1620879349.0,34.0,-17.8833,15.0667,59.31,7.43
533,gold coast,0.0,AU,1620879349.0,43.0,-28.0,153.4333,77.0,8.01
534,quatre cocos,24.0,MU,1620879349.0,75.0,-20.2078,57.7625,78.37,16.87
535,tongliao,99.0,CN,1620879350.0,26.0,43.6125,122.2653,73.36,12.41
536,jumla,63.0,NP,1620879350.0,65.0,29.2747,82.1838,59.59,5.44
537,la ronge,20.0,CA,1620879350.0,61.0,55.1001,-105.2842,42.22,1.14
538,nancha,3.0,CN,1620879351.0,25.0,47.1333,129.2667,67.69,15.79
539,baruun-urt,47.0,MN,1620879351.0,17.0,46.6806,113.2792,63.27,14.25
540,benghazi,0.0,LY,1620879351.0,79.0,32.1167,20.0667,65.75,10.25
541,banda aceh,52.0,ID,1620879207.0,73.0,5.5577,95.3222,85.15,4.36
542,meulaboh,48.0,ID,1620879351.0,70.0,4.1363,96.1285,85.86,2.21
543,male,100.0,MV,1620879352.0,82.0,4.1748,73.5089,82.65,21.7
544,turukhansk,90.0,RU,1620879412.0,72.0,65.8167,87.9833,40.77,7.49
545,danilovka,30.0,RU,1620879412.0,78.0,50.3557,44.1168,56.57,4.85
546,muisne,63.0,EC,1620879413.0,84.0,0.6,-80.0333,75.04,2.82
547,haicheng,86.0,CN,1620879413.0,60.0,40.8516,122.7475,68.4,3.6
548,serowe,0.0,BW,1620879413.0,53.0,-22.3833,26.7167,54.57,1.45
549,guymon,40.0,US,1620879413.0,62.0,36.6828,-101.4816,40.69,5.75
550,tingo maria,40.0,PE,1620879195.0,98.0,-9.2895,-76.0088,67.17,2.06
551,altamont,1.0,US,1620879414.0,36.0,42.2068,-121.7372,49.68,6.91
552,lahij,51.0,YE,1620879414.0,50.0,13.1667,44.5833,84.7,4.14
553,tukrah,0.0,LY,1620879414.0,82.0,32.5341,20.5791,63.55,4.29
554,billings,40.0,US,1620879165.0,55.0,45.7833,-108.5007,42.94,9.22
555,vila do maio,3.0,CV,1620879415.0,81.0,15.1333,-23.2167,71.6,15.43
556,kalmeshwar,41.0,IN,1620879415.0,16.0,21.2333,78.9,92.77,11.32
557,havelock,90.0,US,1620879415.0,93.0,34.8791,-76.9013,49.93,3.0
558,mahibadhoo,100.0,MV,1620879415.0,78.0,3.7833,72.9667,83.35,22.24
559,campestre,74.0,BR,1620879416.0,74.0,-21.7111,-46.2464,57.79,3.13
560,dalen,90.0,NL,1620879416.0,93.0,52.6992,6.7556,49.84,5.1
561,ransang,49.0,PH,1620879416.0,66.0,8.9603,117.5828,87.89,1.41
563,san fernando,2.0,PH,1620879164.0,29.0,15.0286,120.6898,96.91,13.53
564,ahipara,17.0,NZ,1620879416.0,66.0,-35.1667,173.1667,62.91,6.2
565,lazaro cardenas,91.0,MX,1620879417.0,78.0,17.9583,-102.2,80.29,2.75
566,itoman,40.0,JP,1620879417.0,89.0,26.1247,127.6694,85.95,11.5
567,nadvoitsy,0.0,RU,1620879417.0,70.0,63.8667,34.3167,56.82,5.73
568,avdon,0.0,RU,1620879417.0,45.0,54.6667,55.7167,64.09,2.71
569,tiznit,21.0,MA,1620879418.0,49.0,29.5833,-9.5,63.7,1.59
570,rocha,0.0,UY,1620879418.0,77.0,-34.4833,-54.3333,45.09,5.68
571,labelle,86.0,US,1620879418.0,78.0,26.7617,-81.4384,82.38,4.16
572,solnechnyy,100.0,RU,1620879419.0,95.0,50.7214,136.6319,46.26,5.97
573,cap-aux-meules,97.0,CA,1620879419.0,87.0,47.3821,-61.8597,41.0,14.97
574,krasnoselkup,100.0,RU,1620879420.0,75.0,65.7,82.4667,43.45,17.34
575,saint-leu,4.0,RE,1620879420.0,72.0,-21.15,55.2833,75.85,2.73
576,ternate,100.0,ID,1620879420.0,66.0,0.8,127.4,85.59,5.77
577,cayenne,75.0,GF,1620879125.0,90.0,4.9333,-52.3333,76.95,1.99
578,nanortalik,5.0,GL,1620879420.0,69.0,60.1432,-45.2371,39.85,7.16
579,lincoln,1.0,US,1620879421.0,53.0,40.8,-96.667,49.73,1.01
580,jalu,0.0,LY,1620879421.0,17.0,29.0331,21.5482,74.75,1.45
581,opuwo,1.0,NA,1620879421.0,38.0,-18.0607,13.84,58.82,7.76
582,wattegama,100.0,LK,1620879422.0,72.0,6.7989,81.4808,83.35,1.32
583,gwadar,2.0,PK,1620879422.0,72.0,25.1216,62.3254,85.12,8.61
584,araouane,30.0,ML,1620879422.0,10.0,18.9048,-3.5265,86.63,13.15
585,sorland,100.0,NO,1620879423.0,89.0,67.667,12.6934,40.35,29.35
586,gouyave,20.0,GD,1620879423.0,75.0,12.1646,-61.7296,79.52,19.19
587,flin flon,100.0,CA,1620879306.0,91.0,54.7682,-101.865,46.18,5.26
588,nantucket,40.0,US,1620879423.0,93.0,41.2835,-70.0995,49.96,0.0
589,sivas,0.0,TR,1620879424.0,35.0,39.7916,37.0019,37.47,10.36
592,portland,20.0,US,1620879078.0,58.0,45.5234,-122.6762,67.89,1.99
593,bowen,0.0,AU,1620879425.0,72.0,-20.0167,148.2333,79.0,10.92
594,mount gambier,97.0,AU,1620879425.0,70.0,-37.8333,140.7667,52.95,10.87
595,kizilskoye,0.0,RU,1620879426.0,34.0,52.7255,58.8937,68.04,3.33
597,weston,40.0,US,1620879334.0,89.0,26.1004,-80.3998,78.98,4.0
598,sabang,45.0,ID,1620879426.0,70.0,5.8933,95.3214,84.31,3.0
599,olafsvik,100.0,IS,1620879486.0,59.0,64.8945,-23.7142,38.98,1.99
600,fort morgan,1.0,US,1620879487.0,87.0,40.2503,-103.8,34.61,9.22
601,moose factory,75.0,CA,1620879487.0,76.0,51.2585,-80.6094,44.51,0.0
602,muros,100.0,ES,1620879487.0,96.0,42.7762,-9.0603,56.84,15.61
603,kampot,71.0,KH,1620879488.0,61.0,10.6167,104.1833,87.76,3.89
604,santa cruz de la palma,75.0,ES,1620879488.0,68.0,28.6835,-17.7642,67.93,13.8
606,deputatskiy,99.0,RU,1620879489.0,79.0,69.3,139.9,23.31,1.72
607,sovetskiy,38.0,RU,1620879489.0,56.0,61.3614,63.5842,64.69,11.36
608,itupiranga,41.0,BR,1620879490.0,88.0,-5.1347,-49.3267,73.53,2.71
609,iquique,35.0,CL,1620879490.0,80.0,-20.2208,-70.1431,62.13,6.55
611,weihai,82.0,CN,1620879490.0,73.0,37.5017,122.1136,65.57,2.71
612,high rock,55.0,BS,1620879491.0,75.0,26.6208,-78.2833,80.6,8.63
613,mucurapo,63.0,TT,1620879491.0,83.0,10.6667,-61.5333,76.87,8.68
614,beloha,17.0,MG,1620879491.0,98.0,-25.1667,45.05,65.98,4.79
615,ugoofaaru,100.0,MV,1620879492.0,75.0,5.6667,73.0,84.47,22.84
616,terrak,100.0,NO,1620879492.0,97.0,65.087,12.3715,44.47,2.46
617,kurmanayevka,34.0,RU,1620879492.0,48.0,52.5093,52.0675,67.41,12.82
618,luang prabang,9.0,LA,1620879493.0,50.0,19.8856,102.1347,93.58,2.62
619,ishigaki,40.0,JP,1620879493.0,79.0,24.3448,124.1572,85.78,16.11
620,tilichiki,61.0,RU,1620879493.0,94.0,60.4667,166.1,31.71,6.78
